공공기관,도로명주소,위도,경도
종로구청,서울특별시 종로구 종로1길 36(수송동),37.5735051436739,126.978988255925
노원구청,서울특별시 노원구 노해로 437(상계동),37.6545190418039,127.056297212439
송파구청,서울특별시 송파구 올림픽로 326(신천동),37.514477182474,127.105859984389
마포구청,서울특별시 마포구 월드컵로 지하190(성산동),37.5634263131969,126.903356973848
양천구청,서울특별시 양천구 목동동로 105(신정동),37.5170753784215,126.866542541936
